{"monday":[{"name":"Csci 4131 Lecture","start":"09:45","end":"11:00","phone":"See Class information on Canvas","location":"5 Blegen Hall","info":"CSci 4131 Info","url":"https://onestop2.umn.edu/pcas/viewCatalogCourse.do?courseId=790654"}],"tuesday":[],"wednesday":[{"name":"CSci 4131 Lecture","start":"09:45","end":"11:00","phone":"See Class information on Canvas","location":"5 Blegen Hall","info":"CSci 4131 Info","url":"https://onestop2.umn.edu/pcas/viewCatalogCourse.do?courseId=790654"}],"thursday":[],"friday":[],"saturday":[],"sunday":[{"name":"Watch TV","start":"06:00","end":"08:00","phone":"57899","location":"Home","info":"TV shows info","url":"http://www.cctv.com"},{"name":"Eat","start":"12:48","end":"18:48","phone":"234","location":"SVF","info":"Eating~","url":"http://www.eat.com"},{"name":"Play games","start":"13:49","end":"21:49","phone":"3435","location":"345y","info":"3456y","url":"http://game.com"},{"name":"waefrgth","start":"15:24","end":"17:06","phone":"66666666","location":"hhhhyhhhh","info":"retjykjgcfdh","url":"http://ghcgg"},{"name":"hhh","start":"16:06","end":"16:10","phone":"23","location":"321r4","info":"3412","url":"http://lgulife.com"},{"name":"Jogging","start":"16:33","end":"21:29","phone":"888","location":"UMN","info":"Jogging info","url":"http://www.umn.com"},{"name":"hhhhhhhh","start":"22:07","end":"22:12","phone":"999","location":"124356","info":"346ygf","url":"http://jg"}]}